% program   : RTKLIB ver.demo5 b33c
% inp file  : gps.obs
% inp file  : gps.nav
% inp file  : BRUX00BEL_R_20201261200_01H_CN.rnx
% inp file  : BRUX00BEL_R_20201261200_01H_EN.rnx
% inp file  : BRUX00BEL_R_20201261200_01H_GN.rnx
% inp file  : BRUX00BEL_R_20201261200_01H_RN.rnx
% inp file  : BRUX00BEL_S_20201261245_15M_01S_MO.rnx
% obs start : 2020/05/05 12:46:19.8 GPST (week2104 218779.8s)
% obs end   : 2020/05/05 13:02:07.4 GPST (week2104 219727.4s)
% pos mode  : kinematic
% freqs     : L1+L2/E5b+L5
% solution  : combined
% elev mask : 15.0 deg
% dynamics  : on
% tidecorr  : off
% ionos opt : broadcast
% tropo opt : saastamoinen
% ephemeris : broadcast
% navi sys  : gps glonass galileo qzss beidou sbas
% amb res   : fix and hold
% amb glo   : fix and hold
% val thres : 3.0
% antenna1  :                       ( 0.0000  0.0000  0.0000)
% antenna2  : JAVRINGANT_DM   NONE  ( 0.0000  0.0010  0.4689)
% ref pos   : 50.798062824   4.358563478  158.2600
%
% (lat/lon/height=WGS84/ellipsoidal,Q=1:fix,2:float,3:sbas,4:dgps,5:single,6:ppp,ns=# of satellites)
%  GPST                  latitude(deg) longitude(deg)  height(m)   Q  ns   sdn(m)   sde(m)   sdu(m)  sdne(m)  sdeu(m)  sdun(m) age(s)  ratio    vn(m/s)    ve(m/s)    vu(m/s)      sdvn     sdve     sdvu    sdvne    sdveu    sdvun
2020/05/05 12:46:19.800   51.215573808    4.392660399    51.0563   1  22   0.0028   0.0026   0.0063   0.0003   0.0014  -0.0011   0.79    3.2    0.00479   -0.00042    0.00402   0.04019  0.03881  0.03821  0.00431  0.00809 -0.00671
2020/05/05 12:46:19.850   51.215573809    4.392660405    51.0562   1  22   0.0028   0.0026   0.0063   0.0003   0.0014  -0.0011   0.84    3.2    0.00548   -0.00859    0.00597   0.04021  0.03883  0.03822  0.00432  0.00810 -0.00671
2020/05/05 12:46:19.900   51.215573809    4.392660399    51.0558   1  22   0.0028   0.0026   0.0063   0.0003   0.0014  -0.0011   0.89    3.2    0.00699   -0.00539    0.00915   0.04026  0.03888  0.03823  0.00433  0.00811 -0.00671
2020/05/05 12:46:19.950   51.215573822    4.392660388    51.0563   1  22   0.0028   0.0026   0.0063   0.0003   0.0014  -0.0011   0.94    3.1   -0.01337    0.00537    0.00776   0.04029  0.03891  0.03822  0.00429  0.00807 -0.00674
2020/05/05 12:46:20.000   51.215573821    4.392660390    51.0570   1  22   0.0027   0.0026   0.0063   0.0003   0.0013  -0.0011  -0.01    3.1   -0.01783    0.00480    0.00540   0.04007  0.03867  0.03817  0.00415  0.00794 -0.00683
2020/05/05 12:46:20.050   51.215573808    4.392660397    51.0575   1  22   0.0028   0.0026   0.0063   0.0003   0.0014  -0.0011   0.04    3.1   -0.00242   -0.00072    0.00369   0.04032  0.03892  0.03829  0.00410  0.00809 -0.00675
2020/05/05 12:46:20.100   51.215573796    4.392660403    51.0576   1  22   0.0028   0.0026   0.0063   0.0003   0.0014  -0.0011   0.09    3.1    0.01949   -0.00845    0.00414   0.04029  0.03890  0.03830  0.00407  0.00810 -0.00674
2020/05/05 12:46:20.150   51.215573810    4.392660400    51.0578   1  22   0.0028   0.0026   0.0063   0.0003   0.0014  -0.0011   0.14    3.1    0.00414   -0.00740    0.00382   0.04029  0.03889  0.03833  0.00405  0.00810 -0.00662
2020/05/05 12:46:20.200   51.215573813    4.392660381    51.0568   1  21   0.0028   0.0026   0.0063   0.0002   0.0013  -0.0011   0.19    3.1    0.00059    0.01026    0.00983   0.04043  0.03896  0.03838  0.00325  0.00796 -0.00625
2020/05/05 12:46:20.250   51.215573807    4.392660374    51.0568   1  22   0.0028   0.0026   0.0063   0.0003   0.0013  -0.0011   0.24    3.1    0.01159    0.02234    0.01072   0.04036  0.03890  0.03841  0.00446  0.00817 -0.00653
2020/05/05 12:46:20.300   51.215573818    4.392660406    51.0594   1  21   0.0028   0.0026   0.0063   0.0002   0.0013  -0.0011   0.29    3.1   -0.00455   -0.00468   -0.00187   0.04052  0.03897  0.03851  0.00368  0.00795 -0.00616
2020/05/05 12:46:20.350   51.215573826    4.392660408    51.0589   1  21   0.0028   0.0026   0.0063   0.0002   0.0014  -0.0010   0.34    3.1   -0.02117   -0.01054   -0.00025   0.04052  0.03895  0.03861  0.00373  0.00804 -0.00612
2020/05/05 12:46:20.400   51.215573811    4.392660406    51.0582   1  21   0.0028   0.0026   0.0063   0.0004   0.0014  -0.0009   0.39    3.1   -0.00465   -0.01430    0.00339   0.04063  0.03916  0.03874  0.00516  0.00858 -0.00554
2020/05/05 12:46:20.450   51.215573808    4.392660392    51.0589   1  21   0.0028   0.0026   0.0063   0.0004   0.0014  -0.0009   0.44    3.1   -0.00051   -0.00566   -0.00042   0.04093  0.03915  0.03882  0.00515  0.00853 -0.00498
2020/05/05 12:46:20.500   51.215573801    4.392660395    51.0589   1  21   0.0028   0.0026   0.0063   0.0004   0.0014  -0.0009   0.49    3.1    0.01174   -0.01093   -0.00119   0.04095  0.03915  0.03885  0.00525  0.00846 -0.00521
2020/05/05 12:46:20.550   51.215573806    4.392660386    51.0596   1  21   0.0028   0.0026   0.0063   0.0004   0.0014  -0.0009   0.54    3.1    0.00740   -0.00233   -0.00592   0.04102  0.03919  0.03887  0.00546  0.00843 -0.00535
2020/05/05 12:46:20.600   51.215573819    4.392660386    51.0616   1  21   0.0028   0.0026   0.0064   0.0004   0.0014  -0.0009   0.59    3.1   -0.01177    0.00016   -0.01807   0.04110  0.03924  0.03889  0.00570  0.00850 -0.00526
2020/05/05 12:46:20.650   51.215573809    4.392660368    51.0603   1  21   0.0028   0.0026   0.0064   0.0004   0.0014  -0.0009   0.64    3.1    0.00175    0.02326   -0.01397   0.04116  0.03928  0.03896  0.00579  0.00865 -0.00501
2020/05/05 12:46:20.700   51.215573805    4.392660372    51.0575   1  21   0.0029   0.0026   0.0065   0.0005   0.0014  -0.0011   0.69    3.1    0.01060    0.02926   -0.00089   0.04120  0.03932  0.03923  0.00576  0.00861 -0.00540
2020/05/05 12:46:20.750   51.215573812    4.392660404    51.0574   1  21   0.0029   0.0027   0.0067   0.0006   0.0013  -0.0014   0.74    3.1    0.00253    0.00573   -0.00073   0.04154  0.03944  0.03995  0.00678  0.00737 -0.00817
2020/05/05 12:46:20.800   51.215573815    4.392660418    51.0572   1  21   0.0029   0.0027   0.0068   0.0006   0.0013  -0.0014   0.79    3.1   -0.00093   -0.00935    0.00025   0.04156  0.03945  0.03997  0.00676  0.00736 -0.00813
2020/05/05 12:46:20.850   51.215573815    4.392660411    51.0565   1  21   0.0029   0.0027   0.0068   0.0006   0.0013  -0.0014   0.84    3.1   -0.00186   -0.00797    0.00360   0.04162  0.03946  0.03998  0.00676  0.00736 -0.00807
2020/05/05 12:46:20.900   51.215573815    4.392660397    51.0576   1  21   0.0029   0.0027   0.0068   0.0005   0.0013  -0.0014   0.89    3.1   -0.00520    0.00231   -0.00200   0.04176  0.03951  0.03999  0.00661  0.00744 -0.00811
2020/05/05 12:46:20.950   51.215573822    4.392660386    51.0569   1  21   0.0029   0.0027   0.0068   0.0005   0.0013  -0.0014   0.94    3.2   -0.00958    0.00362   -0.00545   0.04199  0.03970  0.03998  0.00551  0.00774 -0.00839
2020/05/05 12:46:21.000   51.215573806    4.392660418    51.0565   1  21   0.0029   0.0026   0.0067   0.0006   0.0013  -0.0014  -0.01    3.1    0.00492   -0.02246    0.00286   0.04165  0.03929  0.03988  0.00621  0.00728 -0.00817
2020/05/05 12:46:21.050   51.215573808    4.392660404    51.0545   1  21   0.0029   0.0027   0.0068   0.0005   0.0013  -0.0014   0.04    3.1    0.00493   -0.01904    0.01331   0.04193  0.03955  0.04001  0.00627  0.00739 -0.00805
2020/05/05 12:46:21.100   51.215573809    4.392660384    51.0561   1  21   0.0030   0.0027   0.0068   0.0004   0.0012  -0.0013   0.09    3.1    0.00574   -0.00621    0.00627   0.04249  0.03959  0.04002  0.00472  0.00714 -0.00741
2020/05/05 12:46:21.150   51.215573824    4.392660389    51.0592   1  21   0.0030   0.0027   0.0068   0.0004   0.0012  -0.0013   0.14    3.1   -0.01725   -0.01375   -0.00971   0.04245  0.03955  0.04000  0.00470  0.00713 -0.00743
2020/05/05 12:46:21.200   51.215573810    4.392660368    51.0582   1  21   0.0030   0.0027   0.0068   0.0004   0.0012  -0.0013   0.19    3.1   -0.00002    0.00427   -0.00599   0.04240  0.03952  0.03999  0.00470  0.00714 -0.00746
2020/05/05 12:46:21.250   51.215573807    4.392660371    51.0570   1  21   0.0030   0.0027   0.0068   0.0004   0.0012  -0.0013   0.24    3.1    0.00821    0.00268   -0.00106   0.04234  0.03949  0.03998  0.00472  0.00714 -0.00747
2020/05/05 12:46:21.300   51.215573808    4.392660373    51.0562   1  21   0.0030   0.0027   0.0067   0.0004   0.0012  -0.0013   0.29    3.1    0.01308    0.00265    0.00276   0.04228  0.03948  0.03997  0.00469  0.00713 -0.00745
2020/05/05 12:46:21.350   51.215573810    4.392660377    51.0573   1  21   0.0030   0.0027   0.0067   0.0004   0.0012  -0.0013   0.34    3.1    0.01541    0.00040   -0.00323   0.04228  0.03948  0.03995  0.00453  0.00708 -0.00738
2020/05/05 12:46:21.400   51.215573817    4.392660372    51.0579   1  21   0.0030   0.0027   0.0067   0.0004   0.0012  -0.0013   0.39    3.1    0.01028    0.00631   -0.00704   0.04234  0.03949  0.03994  0.00421  0.00702 -0.00734
2020/05/05 12:46:21.450   51.215573823    4.392660375    51.0568   1  21   0.0030   0.0027   0.0067   0.0004   0.0013  -0.0014   0.44    3.0    0.00510    0.00584   -0.00307   0.04232  0.03948  0.03994  0.00412  0.00710 -0.00756
2020/05/05 12:46:21.500   51.215573827    4.392660385    51.0553   1  21   0.0029   0.0027   0.0067   0.0004   0.0013  -0.0014   0.49    3.1   -0.00196   -0.00545   -0.00016   0.04181  0.03955  0.03996  0.00490  0.00766 -0.00841
2020/05/05 12:46:21.550   51.215573829    4.392660392    51.0561   1  21   0.0030   0.0027   0.0068  -0.0001   0.0013  -0.0014   0.54    3.1   -0.00497   -0.01504   -0.00277   0.04234  0.03963  0.03999  0.00314  0.00743 -0.00781
2020/05/05 12:46:21.600   51.215573830    4.392660375    51.0558   1  21   0.0030   0.0027   0.0068  -0.0001   0.0013  -0.0014   0.59    3.1   -0.00829   -0.00271   -0.00214   0.04226  0.03962  0.04000  0.00378  0.00744 -0.00778
2020/05/05 12:46:21.650   51.215573825    4.392660354    51.0558   1  21   0.0030   0.0027   0.0068  -0.0001   0.0013  -0.0014   0.64    3.1   -0.00180    0.01905   -0.00319   0.04225  0.03963  0.04000  0.00402  0.00746 -0.00777
2020/05/05 12:46:21.700   51.215573812    4.392660370    51.0554   1  21   0.0030   0.0027   0.0068   0.0002   0.0013  -0.0014   0.69    3.1    0.02112    0.00880   -0.00188   0.04226  0.03967  0.03999  0.00401  0.00753 -0.00790
2020/05/05 12:46:21.750   51.215573807    4.392660390    51.0569   1  21   0.0021   0.0019   0.0048   0.0003   0.0009  -0.0010  -0.26    3.0    0.00173   -0.00832   -0.00883   0.03230  0.03073  0.02939  0.00410  0.00565 -0.00618
2020/05/05 12:46:21.800   51.215573803    4.392660399    51.0583   1  21   0.0021   0.0019   0.0048   0.0004   0.0009  -0.0010  -0.21    3.0    0.00084   -0.00280   -0.01346   0.03130  0.02968  0.02927  0.00470  0.00536 -0.00596
2020/05/05 12:46:21.850   51.215573808    4.392660391    51.0591   1  21   0.0021   0.0019   0.0049   0.0004   0.0009  -0.0010  -0.16    3.0   -0.00231    0.00013   -0.00883   0.03036  0.02874  0.02912  0.00463  0.00535 -0.00592
2020/05/05 12:46:21.900   51.215573822    4.392660368    51.0573   1  21   0.0021   0.0019   0.0049   0.0003   0.0009  -0.0011  -0.11    3.0   -0.00399   -0.00322   -0.00178   0.02988  0.02835  0.02896  0.00400  0.00561 -0.00610
2020/05/05 12:46:21.950   51.215573829    4.392660368    51.0562   1  21   0.0021   0.0019   0.0049   0.0003   0.0010  -0.0011  -0.06    3.0   -0.00408   -0.00680    0.00260   0.02967  0.02819  0.02879  0.00406  0.00560 -0.00607
2020/05/05 12:46:22.000   51.215573826    4.392660381    51.0549   1  21   0.0021   0.0019   0.0048   0.0003   0.0009  -0.0011  -0.01    5.1    0.00124   -0.00454    0.00319   0.02945  0.02800  0.02858  0.00403  0.00548 -0.00605
2020/05/05 12:46:22.050   51.215573806    4.392660367    51.0532   1  21   0.0021   0.0019   0.0049   0.0003   0.0010  -0.0011  -0.96    5.2    0.00174   -0.00281   -0.00015   0.02964  0.02819  0.02853  0.00408  0.00555 -0.00597
2020/05/05 12:46:22.100   51.215573804    4.392660378    51.0530   1  21   0.0021   0.0019   0.0048   0.0003   0.0009  -0.0011  -0.91    5.2   -0.00257    0.00103   -0.00471   0.02960  0.02814  0.02846  0.00400  0.00554 -0.00594
2020/05/05 12:46:22.150   51.215573807    4.392660355    51.0526   1  21   0.0021   0.0019   0.0048   0.0003   0.0009  -0.0011  -0.86    5.2   -0.00106    0.00628   -0.00735   0.02953  0.02808  0.02840  0.00393  0.00551 -0.00596
2020/05/05 12:46:22.200   51.215573808    4.392660344    51.0520   1  21   0.0021   0.0019   0.0048   0.0003   0.0009  -0.0011  -0.81    5.2   -0.00010   -0.00025   -0.01264   0.02949  0.02804  0.02835  0.00391  0.00545 -0.00601
2020/05/05 12:46:22.250   51.215573817    4.392660373    51.0540   1  21   0.0021   0.0019   0.0048   0.0003   0.0009  -0.0010  -0.76    5.2   -0.00002   -0.00202   -0.01384   0.02947  0.02802  0.02829  0.00396  0.00541 -0.00602
2020/05/05 12:46:22.300   51.215573821    4.392660385    51.0553   1  21   0.0021   0.0019   0.0048   0.0003   0.0010  -0.0010  -0.71    5.2    0.00119    0.00660   -0.00402   0.02944  0.02801  0.02820  0.00396  0.00551 -0.00585
2020/05/05 12:46:22.350   51.215573817    4.392660370    51.0534   1  21   0.0020   0.0019   0.0047   0.0002   0.0010  -0.0009  -0.66    5.2   -0.00376    0.00678    0.00298   0.02925  0.02791  0.02783  0.00298  0.00635 -0.00436
2020/05/05 12:46:22.400   51.215573825    4.392660380    51.0524   1  21   0.0021   0.0019   0.0048   0.0003   0.0010  -0.0010  -0.61    5.2   -0.00682    0.00075    0.00042   0.02941  0.02797  0.02817  0.00394  0.00547 -0.00587
2020/05/05 12:46:22.450   51.215573818    4.392660386    51.0530   1  21   0.0021   0.0019   0.0048   0.0003   0.0009  -0.0010  -0.56    5.2   -0.00322   -0.00044   -0.00310   0.02940  0.02795  0.02822  0.00393  0.00535 -0.00604
2020/05/05 12:46:22.500   51.215573806    4.392660387    51.0537   1  21   0.0021   0.0019   0.0048   0.0003   0.0009  -0.0011  -0.51    5.2   -0.00067    0.00132   -0.00287   0.02938  0.02794  0.02823  0.00387  0.00536 -0.00603
2020/05/05 12:46:22.550   51.215573793    4.392660377    51.0543   1  21   0.0021   0.0019   0.0048   0.0003   0.0009  -0.0011  -0.46    5.2   -0.00198    0.00309    0.00094   0.02938  0.02794  0.02823  0.00388  0.00541 -0.00597
2020/05/05 12:46:22.600   51.215573794    4.392660365    51.0530   1  21   0.0021   0.0019   0.0048   0.0003   0.0009  -0.0011  -0.41    5.2   -0.00704    0.00058    0.00355   0.02940  0.02796  0.02822  0.00392  0.00545 -0.00591
2020/05/05 12:46:22.650   51.215573812    4.392660372    51.0532   1  21   0.0021   0.0019   0.0048   0.0003   0.0009  -0.0011  -0.36    5.2   -0.00366   -0.00213    0.00391   0.02942  0.02798  0.02822  0.00395  0.00547 -0.00588
2020/05/05 12:46:22.700   51.215573817    4.392660380    51.0527   1  21   0.0021   0.0019   0.0048   0.0003   0.0009  -0.0011  -0.31    4.6    0.00784   -0.00244    0.00225   0.02943  0.02799  0.02822  0.00392  0.00548 -0.00588
2020/05/05 12:46:22.750   51.215573810    4.392660398    51.0542   1  21   0.0021   0.0019   0.0048   0.0003   0.0009  -0.0011  -0.26    4.6    0.01131    0.00236    0.00306   0.02943  0.02800  0.02822  0.00386  0.00545 -0.00593
2020/05/05 12:46:22.800   51.215573814    4.392660391    51.0538   1  21   0.0021   0.0019   0.0048   0.0003   0.0009  -0.0011  -0.21    4.6    0.01004    0.00950    0.00754   0.02944  0.02801  0.02822  0.00381  0.00539 -0.00602
2020/05/05 12:46:22.850   51.215573814    4.392660381    51.0532   1  21   0.0021   0.0019   0.0048   0.0003   0.0009  -0.0010  -0.16    4.6    0.00875    0.01210    0.00801   0.02947  0.02803  0.02818  0.00386  0.00532 -0.00609
2020/05/05 12:46:22.900   51.215573821    4.392660370    51.0531   1  21   0.0021   0.0019   0.0048   0.0003   0.0010  -0.0010  -0.11    4.6    0.00729    0.00816    0.00580   0.02951  0.02807  0.02808  0.00394  0.00542 -0.00591
2020/05/05 12:46:22.950   51.215573822    4.392660384    51.0532   1  21   0.0020   0.0019   0.0047   0.0002   0.0011  -0.0008  -0.06    4.6    0.00456    0.00088    0.00217   0.02935  0.02801  0.02766  0.00299  0.00639 -0.00418
2020/05/05 12:46:23.000   51.215573829    4.392660402    51.0543   1  21   0.0020   0.0019   0.0046   0.0002   0.0010  -0.0008  -0.01    4.5    0.00227   -0.00441   -0.00048   0.02918  0.02784  0.02762  0.00291  0.00632 -0.00422
2020/05/05 12:46:23.050   51.215573827    4.392660424    51.0559   1  21   0.0021   0.0019   0.0048   0.0003   0.0010  -0.0010  -0.96    4.5    0.00129   -0.00586    0.00341   0.02955  0.02810  0.02812  0.00386  0.00552 -0.00576
2020/05/05 12:46:23.100   51.215573827    4.392660422    51.0550   1  21   0.0021   0.0019   0.0048   0.0003   0.0009  -0.0010  -0.91    4.5   -0.00085   -0.00139    0.00852   0.02954  0.02806  0.02822  0.00364  0.00544 -0.00593
2020/05/05 12:46:23.150   51.215573820    4.392660390    51.0543   1  21   0.0021   0.0019   0.0048   0.0003   0.0009  -0.0011  -0.86    4.5   -0.00520   -0.00161    0.00622   0.02953  0.02803  0.02824  0.00340  0.00544 -0.00598
2020/05/05 12:46:23.200   51.215573822    4.392660373    51.0545   1  21   0.0021   0.0019   0.0048   0.0003   0.0009  -0.0010  -0.81    4.5   -0.00995   -0.00509    0.00113   0.02951  0.02802  0.02819  0.00344  0.00539 -0.00604
2020/05/05 12:46:23.250   51.215573824    4.392660356    51.0550   1  21   0.0021   0.0019   0.0047   0.0003   0.0010  -0.0010  -0.76    4.5   -0.00814   -0.00851   -0.00337   0.02949  0.02801  0.02804  0.00362  0.00541 -0.00590
2020/05/05 12:46:23.300   51.215573819    4.392660371    51.0569   1  21   0.0021   0.0019   0.0046  -0.0002   0.0010  -0.0007  -0.71    4.5   -0.00264   -0.00937   -0.00192   0.02970  0.02798  0.02757 -0.00117  0.00615 -0.00359
2020/05/05 12:46:23.350   51.215573808    4.392660379    51.0568   1  21   0.0021   0.0019   0.0046  -0.0003   0.0010  -0.0007  -0.66    4.4   -0.00267   -0.00524    0.00185   0.02970  0.02797  0.02748 -0.00102  0.00616 -0.00333
2020/05/05 12:46:23.400   51.215573812    4.392660393    51.0570   1  21   0.0021   0.0019   0.0046  -0.0002   0.0010  -0.0007  -0.61    4.4   -0.00154   -0.00007    0.00533   0.02969  0.02795  0.02752 -0.00135  0.00609 -0.00365
2020/05/05 12:46:23.450   51.215573803    4.392660389    51.0553   1  21   0.0021   0.0019   0.0047   0.0003   0.0009  -0.0010  -0.56    4.4   -0.00034    0.00451    0.00639   0.02948  0.02795  0.02793  0.00343  0.00533 -0.00590
2020/05/05 12:46:23.500   51.215573813    4.392660377    51.0550   1  21   0.0021   0.0019   0.0047   0.0003   0.0009  -0.0010  -0.51    4.4   -0.00084    0.00243    0.00096   0.02951  0.02794  0.02802  0.00310  0.00530 -0.00605
2020/05/05 12:46:23.550   51.215573818    4.392660376    51.0561   1  21   0.0021   0.0019   0.0048   0.0003   0.0009  -0.0011  -0.46    4.3    0.00131   -0.00192   -0.00000   0.02950  0.02794  0.02805  0.00301  0.00535 -0.00602
2020/05/05 12:46:23.600   51.215573822    4.392660384    51.0556   1  21   0.0021   0.0019   0.0047   0.0003   0.0009  -0.0010  -0.41    4.3    0.00272    0.00053    0.00230   0.02947  0.02794  0.02803  0.00326  0.00535 -0.00595
2020/05/05 12:46:23.650   51.215573823    4.392660374    51.0553   1  21   0.0021   0.0019   0.0047  -0.0000   0.0009  -0.0009  -0.36    4.3    0.00547    0.00538    0.00165   0.02987  0.02801  0.02794  0.00176  0.00526 -0.00535
2020/05/05 12:46:23.700   51.215573818    4.392660368    51.0553   1  21   0.0021   0.0019   0.0046  -0.0003   0.0010  -0.0007  -0.31    4.3    0.00298    0.00690    0.00008   0.02972  0.02795  0.02748 -0.00204  0.00615 -0.00335
2020/05/05 12:46:23.750   51.215573818    4.392660360    51.0558   1  21   0.0021   0.0019   0.0046  -0.0002   0.0010  -0.0007  -0.26    4.3    0.00142   -0.00044    0.00106   0.02976  0.02797  0.02739 -0.00218  0.00616 -0.00341
2020/05/05 12:46:23.800   51.215573811    4.392660398    51.0552   1  21   0.0020   0.0019   0.0046   0.0001   0.0011  -0.0007  -0.21    4.2    0.00355   -0.00583    0.00448   0.02938  0.02793  0.02737  0.00176  0.00625 -0.00425
2020/05/05 12:46:23.850   51.215573815    4.392660407    51.0544   1  21   0.0020   0.0019   0.0046   0.0001   0.0011  -0.0007  -0.16    4.2    0.00408   -0.00020    0.00287   0.02940  0.02793  0.02739  0.00144  0.00625 -0.00428
2020/05/05 12:46:23.900   51.215573816    4.392660400    51.0548   1  21   0.0021   0.0019   0.0046  -0.0002   0.0010  -0.0007  -0.11    4.2    0.00171    0.00548   -0.00156   0.02983  0.02800  0.02742 -0.00263  0.00615 -0.00354
2020/05/05 12:46:23.950   51.215573825    4.392660367    51.0552   1  21   0.0021   0.0019   0.0046  -0.0003   0.0010  -0.0006  -0.06    4.2   -0.00321    0.00230   -0.00628   0.02982  0.02801  0.02742 -0.00248  0.00618 -0.00336
2020/05/05 12:46:24.000   51.215573833    4.392660368    51.0566   1  21   0.0021   0.0019   0.0045  -0.0003   0.0010  -0.0006  -0.01    4.2   -0.00214   -0.00633   -0.00765   0.02960  0.02783  0.02734 -0.00235  0.00609 -0.00334
2020/05/05 12:46:24.050   51.215573824    4.392660390    51.0592   1  21   0.0021   0.0019   0.0045  -0.0001   0.0010  -0.0005  -0.96    3.8   -0.00151   -0.00355   -0.00131   0.02967  0.02792  0.02735  0.00085  0.00590 -0.00244
2020/05/05 12:46:24.100   51.215573812    4.392660392    51.0587   1  21   0.0021   0.0019   0.0045   0.0001   0.0010  -0.0005  -0.91    3.8   -0.00358    0.00204    0.00489   0.02968  0.02790  0.02731  0.00043  0.00588 -0.00245
2020/05/05 12:46:24.150   51.215573808    4.392660393    51.0586   1  22   0.0021   0.0019   0.0045   0.0002   0.0010  -0.0006  -0.86    3.8   -0.00684    0.00478    0.00632   0.02957  0.02782  0.02726  0.00194  0.00603 -0.00303
2020/05/05 12:46:24.200   51.215573803    4.392660397    51.0585   1  22   0.0021   0.0019   0.0045   0.0002   0.0010  -0.0006  -0.81    3.8   -0.00876    0.00812    0.00645   0.02955  0.02780  0.02723  0.00194  0.00601 -0.00310
2020/05/05 12:46:24.250   51.215573807    4.392660388    51.0581   1  22   0.0021   0.0019   0.0045   0.0002   0.0010  -0.0006  -0.76    3.8   -0.00903    0.00839    0.00442   0.02952  0.02778  0.02720  0.00212  0.00600 -0.00312
2020/05/05 12:46:24.300   51.215573813    4.392660390    51.0588   1  22   0.0021   0.0019   0.0045   0.0002   0.0010  -0.0006  -0.71    3.8   -0.00295    0.00246    0.00401   0.02948  0.02775  0.02719  0.00232  0.00597 -0.00309
2020/05/05 12:46:24.350   51.215573807    4.392660407    51.0581   1  21   0.0021   0.0019   0.0045   0.0001   0.0010  -0.0005  -0.66    3.7    0.00416   -0.00101    0.00431   0.02956  0.02778  0.02719  0.00111  0.00579 -0.00261
2020/05/05 12:46:24.400   51.215573800    4.392660409    51.0581   1  21   0.0021   0.0019   0.0045   0.0001   0.0010  -0.0005  -0.61    3.7    0.00247   -0.00131    0.00150   0.02954  0.02776  0.02718  0.00117  0.00578 -0.00266
2020/05/05 12:46:24.450   51.215573806    4.392660405    51.0583   1  22   0.0021   0.0019   0.0045   0.0002   0.0010  -0.0006  -0.56    3.7   -0.00120   -0.00467   -0.00089   0.02940  0.02769  0.02715  0.00237  0.00593 -0.00318
2020/05/05 12:46:24.500   51.215573811    4.392660404    51.0593   1  21   0.0021   0.0019   0.0045   0.0001   0.0010  -0.0005  -0.51    3.7    0.00033   -0.00776    0.00092   0.02949  0.02773  0.02716  0.00009  0.00577 -0.00278
2020/05/05 12:46:24.550   51.215573813    4.392660395    51.0586   1  22   0.0021   0.0019   0.0045   0.0002   0.0010  -0.0006  -0.46    3.7    0.00194   -0.00726    0.00356   0.02939  0.02768  0.02714  0.00174  0.00593 -0.00316
2020/05/05 12:46:24.600   51.215573814    4.392660379    51.0585   1  22   0.0021   0.0019   0.0045   0.0002   0.0010  -0.0006  -0.41    3.7    0.00499   -0.00830    0.00377   0.02940  0.02769  0.02713  0.00163  0.00597 -0.00315
2020/05/05 12:46:24.650   51.215573808    4.392660383    51.0583   1  22   0.0021   0.0019   0.0045   0.0002   0.0010  -0.0006  -0.36    3.6    0.00788   -0.00399    0.00384   0.02940  0.02770  0.02713  0.00164  0.00594 -0.00321
2020/05/05 12:46:24.700   51.215573804    4.392660361    51.0577   1  21   0.0020   0.0019   0.0045  -0.0003   0.0009  -0.0007  -0.31    3.6    0.00687   -0.00182    0.00133   0.02919  0.02761  0.02709 -0.00265  0.00540 -0.00382
2020/05/05 12:46:24.750   51.215573806    4.392660374    51.0583   1  21   0.0020   0.0019   0.0045  -0.0003   0.0009  -0.0007  -0.26    3.6    0.00421   -0.00194   -0.00096   0.02929  0.02766  0.02710 -0.00317  0.00535 -0.00372
2020/05/05 12:46:24.800   51.215573814    4.392660381    51.0586   1  21   0.0020   0.0019   0.0045  -0.0003   0.0009  -0.0007  -0.21    3.6    0.00051    0.00277   -0.00120   0.02929  0.02767  0.02711 -0.00324  0.00538 -0.00370
2020/05/05 12:46:24.850   51.215573829    4.392660388    51.0596   1  21   0.0020   0.0019   0.0045  -0.0003   0.0009  -0.0007  -0.16    3.6    0.00237    0.00571    0.00234   0.02919  0.02764  0.02711 -0.00288  0.00544 -0.00380
2020/05/05 12:46:24.900   51.215573825    4.392660392    51.0589   1  21   0.0020   0.0019   0.0045  -0.0003   0.0009  -0.0007  -0.11    3.6    0.00453    0.00646    0.00640   0.02921  0.02766  0.02711 -0.00306  0.00544 -0.00384
2020/05/05 12:46:24.950   51.215573824    4.392660395    51.0581   1  21   0.0020   0.0019   0.0045  -0.0003   0.0009  -0.0007  -0.06    3.5    0.00333    0.00631    0.00443   0.02922  0.02768  0.02711 -0.00314  0.00542 -0.00387
2020/05/05 12:46:25.000   51.215573814    4.392660388    51.0580   1  21   0.0020   0.0018   0.0045  -0.0003   0.0009  -0.0007  -0.01    3.5   -0.00097    0.00277   -0.00204   0.02905  0.02750  0.02704 -0.00312  0.00531 -0.00395
2020/05/05 12:46:25.050   51.215573817    4.392660394    51.0592   1  21   0.0020   0.0019   0.0045  -0.0003   0.0009  -0.0007  -0.96    3.5   -0.00488   -0.00173   -0.00751   0.02922  0.02768  0.02710 -0.00308  0.00541 -0.00387
2020/05/05 12:46:25.100   51.215573814    4.392660396    51.0610   1  21   0.0020   0.0019   0.0045  -0.0003   0.0009  -0.0007  -0.91    3.5   -0.00612   -0.00274   -0.00587   0.02919  0.02766  0.02710 -0.00306  0.00542 -0.00386
2020/05/05 12:46:25.150   51.215573817    4.392660395    51.0610   1  21   0.0020   0.0019   0.0045  -0.0003   0.0009  -0.0007  -0.86    3.5   -0.00735   -0.00132   -0.00154   0.02916  0.02763  0.02709 -0.00306  0.00541 -0.00386
2020/05/05 12:46:25.200   51.215573819    4.392660387    51.0609   1  21   0.0020   0.0019   0.0045  -0.0003   0.0009  -0.0007  -0.81    3.5   -0.00436    0.00048    0.00027   0.02914  0.02761  0.02708 -0.00306  0.00540 -0.00385
2020/05/05 12:46:25.250   51.215573817    4.392660381    51.0607   1  21   0.0020   0.0019   0.0045  -0.0003   0.0009  -0.0007  -0.76    3.5    0.00291    0.00052    0.00081   0.02913  0.02760  0.02707 -0.00306  0.00539 -0.00384
2020/05/05 12:46:25.300   51.215573805    4.392660376    51.0608   1  21   0.0020   0.0019   0.0045  -0.0003   0.0009  -0.0007  -0.71    3.4    0.00392   -0.00263    0.00152   0.02911  0.02758  0.02705 -0.00306  0.00539 -0.00384
2020/05/05 12:46:25.350   51.215573808    4.392660388    51.0600   1  21   0.0020   0.0019   0.0045  -0.0003   0.0009  -0.0007  -0.66    3.4   -0.00179   -0.00647    0.00049   0.02910  0.02756  0.02704 -0.00306  0.00538 -0.00385
2020/05/05 12:46:25.400   51.215573817    4.392660405    51.0600   1  21   0.0020   0.0019   0.0045  -0.0003   0.0009  -0.0007  -0.61    3.4   -0.00374   -0.00326   -0.00203   0.02908  0.02755  0.02703 -0.00305  0.00538 -0.00387
2020/05/05 12:46:25.450   51.215573827    4.392660398    51.0604   1  21   0.0020   0.0018   0.0045  -0.0003   0.0009  -0.0007  -0.56    3.4   -0.00018    0.00417   -0.00060   0.02905  0.02753  0.02702 -0.00299  0.00537 -0.00389
2020/05/05 12:46:25.500   51.215573825    4.392660372    51.0595   1  21   0.0020   0.0018   0.0045  -0.0003   0.0009  -0.0007  -0.51    3.4    0.00461    0.00299    0.00153   0.02901  0.02752  0.02701 -0.00288  0.00537 -0.00391
2020/05/05 12:46:25.550   51.215573818    4.392660371    51.0588   1  21   0.0020   0.0018   0.0045  -0.0003   0.0009  -0.0007  -0.46    3.4    0.00411   -0.00287    0.00019   0.02898  0.02752  0.02700 -0.00276  0.00537 -0.00390
2020/05/05 12:46:25.600   51.215573813    4.392660381    51.0588   1  21   0.0020   0.0018   0.0045  -0.0003   0.0009  -0.0007  -0.41    3.4    0.00001   -0.00294   -0.00144   0.02899  0.02753  0.02700 -0.00272  0.00537 -0.00388
2020/05/05 12:46:25.650   51.215573812    4.392660388    51.0591   1  21   0.0020   0.0019   0.0045  -0.0003   0.0009  -0.0007  -0.36    3.3   -0.00528    0.00111   -0.00044   0.02899  0.02754  0.02699 -0.00268  0.00539 -0.00391
2020/05/05 12:46:25.700   51.215573814    4.392660391    51.0586   1  21   0.0020   0.0018   0.0045   0.0001   0.0009  -0.0008  -0.31    3.3   -0.00747    0.00546    0.00224   0.02862  0.02750  0.02697  0.00107  0.00555 -0.00445
2020/05/05 12:46:25.750   51.215573811    4.392660390    51.0579   1  21   0.0020   0.0018   0.0045   0.0001   0.0009  -0.0008  -0.26    3.3   -0.00479    0.00739    0.00357   0.02862  0.02751  0.02697  0.00117  0.00555 -0.00445
2020/05/05 12:46:25.800   51.215573808    4.392660383    51.0574   1  21   0.0020   0.0018   0.0045   0.0001   0.0009  -0.0008  -0.21    3.3   -0.00305    0.00360    0.00156   0.02862  0.02752  0.02698  0.00139  0.00555 -0.00441
2020/05/05 12:46:25.850   51.215573804    4.392660398    51.0582   1  21   0.0020   0.0019   0.0045   0.0001   0.0009  -0.0008  -0.16    3.3   -0.00134   -0.00090    0.00082   0.02860  0.02753  0.02699  0.00171  0.00557 -0.00441
2020/05/05 12:46:25.900   51.215573800    4.392660407    51.0581   1  21   0.0020   0.0019   0.0045   0.0001   0.0009  -0.0008  -0.11    3.3   -0.00261    0.00212    0.00157   0.02859  0.02755  0.02698  0.00191  0.00560 -0.00443
2020/05/05 12:46:25.950   51.215573806    4.392660391    51.0585   1  21   0.0020   0.0019   0.0044   0.0002   0.0009  -0.0007  -0.06    3.2   -0.00245    0.00069    0.00076   0.02860  0.02757  0.02694  0.00201  0.00557 -0.00439
2020/05/05 12:46:26.000   51.215573807    4.392660399    51.0587   1  22   0.0019   0.0018   0.0044   0.0002   0.0009  -0.0007  -0.01    3.5    0.00131   -0.00297   -0.00139   0.02838  0.02738  0.02679  0.00238  0.00527 -0.00408
2020/05/05 12:46:26.050   51.215573803    4.392660402    51.0606   1  22   0.0020   0.0019   0.0044   0.0002   0.0009  -0.0007  -0.96    3.5    0.00271    0.00127   -0.00250   0.02854  0.02755  0.02685  0.00254  0.00532 -0.00393
2020/05/05 12:46:26.100   51.215573802    4.392660382    51.0618   1  22   0.0020   0.0019   0.0044   0.0002   0.0009  -0.0007  -0.91    3.5    0.00023    0.00068    0.00182   0.02850  0.02752  0.02684  0.00271  0.00527 -0.00382
2020/05/05 12:46:26.150   51.215573810    4.392660390    51.0617   1  22   0.0020   0.0018   0.0044   0.0002   0.0009  -0.0007  -0.86    3.5    0.00167   -0.00396    0.00721   0.02845  0.02748  0.02681  0.00287  0.00519 -0.00369
2020/05/05 12:46:26.200   51.215573805    4.392660400    51.0607   1  22   0.0020   0.0018   0.0044   0.0002   0.0009  -0.0007  -0.81    3.5    0.00449   -0.00192    0.00697   0.02842  0.02745  0.02678  0.00297  0.00511 -0.00357
2020/05/05 12:46:26.250   51.215573802    4.392660403    51.0605   1  22   0.0019   0.0018   0.0044   0.0002   0.0009  -0.0007  -0.76    3.5    0.00104    0.00329    0.00092   0.02840  0.02744  0.02674  0.00298  0.00506 -0.00349
2020/05/05 12:46:26.300   51.215573809    4.392660391    51.0620   1  22   0.0019   0.0018   0.0044   0.0002   0.0009  -0.0007  -0.71    3.5   -0.00049    0.00331   -0.00156   0.02838  0.02742  0.02670  0.00299  0.00505 -0.00351
2020/05/05 12:46:26.350   51.215573808    4.392660396    51.0620   1  22   0.0019   0.0018   0.0044   0.0003   0.0009  -0.0007  -0.66    3.5    0.00080    0.00060    0.00069   0.02832  0.02738  0.02666  0.00331  0.00515 -0.00370
2020/05/05 12:46:26.400   51.215573810    4.392660396    51.0621   1  22   0.0019   0.0018   0.0044   0.0003   0.0009  -0.0007  -0.61    3.4   -0.00146    0.00214    0.00203   0.02829  0.02735  0.02664  0.00341  0.00514 -0.00372
2020/05/05 12:46:26.450   51.215573811    4.392660392    51.0615   1  22   0.0019   0.0018   0.0044   0.0002   0.0009  -0.0007  -0.56    3.4   -0.00214    0.00002    0.00257   0.02833  0.02737  0.02663  0.00305  0.00505 -0.00357
2020/05/05 12:46:26.500   51.215573808    4.392660407    51.0608   1  22   0.0019   0.0018   0.0044   0.0003   0.0009  -0.0007  -0.51    3.4    0.00087   -0.00189    0.00136   0.02823  0.02731  0.02660  0.00364  0.00521 -0.00388
2020/05/05 12:46:26.550   51.215573800    4.392660405    51.0606   1  22   0.0019   0.0018   0.0044   0.0003   0.0009  -0.0007  -0.46    3.4    0.00107    0.00031    0.00056   0.02823  0.02731  0.02660  0.00367  0.00523 -0.00393
2020/05/05 12:46:26.600   51.215573799    4.392660399    51.0599   1  22   0.0019   0.0018   0.0044   0.0003   0.0009  -0.0007  -0.41    3.4   -0.00148   -0.00024    0.00006   0.02824  0.02732  0.02660  0.00366  0.00525 -0.00394
2020/05/05 12:46:26.650   51.215573807    4.392660394    51.0599   1  22   0.0019   0.0018   0.0044   0.0003   0.0009  -0.0007  -0.36    3.4   -0.00255   -0.00122   -0.00234   0.02826  0.02734  0.02661  0.00367  0.00526 -0.00395
2020/05/05 12:46:26.700   51.215573815    4.392660387    51.0601   1  22   0.0019   0.0018   0.0044   0.0003   0.0009  -0.0007  -0.31    3.4   -0.00052   -0.00173   -0.00262   0.02827  0.02735  0.02661  0.00368  0.00527 -0.00395
2020/05/05 12:46:26.750   51.215573814    4.392660383    51.0600   1  22   0.0019   0.0018   0.0044   0.0003   0.0009  -0.0007  -0.26    3.4    0.00278   -0.00518   -0.00050   0.02828  0.02737  0.02662  0.00367  0.00527 -0.00393
2020/05/05 12:46:26.800   51.215573810    4.392660394    51.0589   1  22   0.0019   0.0018   0.0044   0.0003   0.0009  -0.0007  -0.21    3.3    0.00258   -0.00805   -0.00152   0.02830  0.02738  0.02663  0.00365  0.00527 -0.00390
2020/05/05 12:46:26.850   51.215573807    4.392660406    51.0588   1  22   0.0019   0.0018   0.0044   0.0003   0.0009  -0.0007  -0.16    3.3   -0.00042   -0.00277   -0.00729   0.02834  0.02740  0.02663  0.00360  0.00528 -0.00386
2020/05/05 12:46:26.900   51.215573810    4.392660391    51.0606   1  22   0.0019   0.0018   0.0044   0.0003   0.0009  -0.0007  -0.11    3.3   -0.00223    0.00382   -0.00813   0.02840  0.02744  0.02663  0.00349  0.00527 -0.00380
2020/05/05 12:46:26.950   51.215573809    4.392660377    51.0610   1  22   0.0020   0.0018   0.0044   0.0003   0.0009  -0.0006  -0.06    3.3   -0.00357    0.00421   -0.00288   0.02854  0.02752  0.02665  0.00275  0.00510 -0.00348
2020/05/05 12:46:27.000   51.215573814    4.392660372    51.0608   1  22   0.0019   0.0018   0.0044   0.0003   0.0009  -0.0007  -0.01    3.3    0.00013    0.00036    0.00207   0.02831  0.02730  0.02658  0.00323  0.00519 -0.00391
2020/05/05 12:46:27.050   51.215573801    4.392660391    51.0601   1  22   0.0020   0.0018   0.0044   0.0002   0.0009  -0.0006  -0.96    3.3   -0.00029    0.00069    0.00352   0.02857  0.02753  0.02666  0.00267  0.00510 -0.00347
2020/05/05 12:46:27.100   51.215573814    4.392660393    51.0607   1  22   0.0020   0.0019   0.0044  -0.0001   0.0008  -0.0005  -0.91    3.3   -0.00150    0.00278    0.00371   0.02892  0.02756  0.02669 -0.00098  0.00490 -0.00261
2020/05/05 12:46:27.150   51.215573808    4.392660405    51.0603   1  22   0.0020   0.0019   0.0044  -0.0002   0.0008  -0.0005  -0.86    3.3    0.00172    0.00270    0.00451   0.02889  0.02754  0.02669 -0.00095  0.00488 -0.00258
2020/05/05 12:46:27.200   51.215573809    4.392660409    51.0599   1  22   0.0020   0.0018   0.0044  -0.0002   0.0008  -0.0005  -0.81    3.3    0.00090    0.00643    0.00236   0.02886  0.02752  0.02668 -0.00083  0.00488 -0.00266
2020/05/05 12:46:27.250   51.215573811    4.392660389    51.0608   1  22   0.0020   0.0018   0.0044  -0.0002   0.0008  -0.0005  -0.76    3.3    0.00008    0.00502    0.00111   0.02885  0.02751  0.02667 -0.00093  0.00488 -0.00268
2020/05/05 12:46:27.300   51.215573816    4.392660389    51.0611   1  22   0.0020   0.0018   0.0044  -0.0002   0.0008  -0.0005  -0.71    3.3    0.00010   -0.00189    0.00291   0.02886  0.02750  0.02666 -0.00115  0.00487 -0.00266
2020/05/05 12:46:27.350   51.215573818    4.392660394    51.0610   1  22   0.0020   0.0018   0.0044  -0.0001   0.0008  -0.0005  -0.66    3.3    0.00241   -0.00603    0.00395   0.02884  0.02748  0.02665 -0.00114  0.00487 -0.00274
2020/05/05 12:46:27.400   51.215573811    4.392660409    51.0610   1  22   0.0019   0.0018   0.0044   0.0002   0.0008  -0.0006  -0.61    3.2    0.00039   -0.00192    0.00382   0.02845  0.02741  0.02662  0.00261  0.00505 -0.00353
2020/05/05 12:46:27.450   51.215573808    4.392660401    51.0614   1  22   0.0019   0.0018   0.0044   0.0002   0.0008  -0.0006  -0.56    3.2   -0.00259    0.00547    0.00391   0.02843  0.02739  0.02661  0.00266  0.00505 -0.00357
2020/05/05 12:46:27.500   51.215573808    4.392660378    51.0609   1  22   0.0019   0.0018   0.0043   0.0002   0.0008  -0.0006  -0.51    3.2   -0.00477    0.00239    0.00252   0.02839  0.02737  0.02661  0.00278  0.00505 -0.00357
2020/05/05 12:46:27.550   51.215573813    4.392660389    51.0614   1  22   0.0019   0.0018   0.0043   0.0003   0.0009  -0.0007  -0.46    3.2   -0.00297   -0.00503   -0.00020   0.02829  0.02733  0.02659  0.00343  0.00520 -0.00384
2020/05/05 12:46:27.600   51.215573808    4.392660404    51.0617   1  22   0.0019   0.0018   0.0043   0.0003   0.0009  -0.0007  -0.41    3.2   -0.00164   -0.00489   -0.00158   0.02829  0.02734  0.02659  0.00345  0.00522 -0.00387
2020/05/05 12:46:27.650   51.215573812    4.392660413    51.0625   1  23   0.0019   0.0018   0.0043   0.0003   0.0009  -0.0007  -0.36    3.2   -0.00073    0.00180   -0.00043   0.02823  0.02732  0.02656  0.00384  0.00542 -0.00421
2020/05/05 12:46:27.700   51.215573807    4.392660397    51.0616   1  23   0.0019   0.0018   0.0043   0.0003   0.0009  -0.0007  -0.31    3.2    0.00104    0.00595   -0.00003   0.02823  0.02733  0.02657  0.00389  0.00544 -0.00424
2020/05/05 12:46:27.750   51.215573806    4.392660389    51.0615   1  23   0.0019   0.0018   0.0043   0.0003   0.0009  -0.0007  -0.26    3.2    0.00027    0.00484   -0.00384   0.02831  0.02738  0.02659  0.00353  0.00530 -0.00398
2020/05/05 12:46:27.800   51.215573809    4.392660386    51.0625   1  23   0.0019   0.0018   0.0043   0.0003   0.0009  -0.0007  -0.21    3.2    0.00026    0.00259   -0.00449   0.02832  0.02739  0.02660  0.00355  0.00528 -0.00391
2020/05/05 12:46:27.850   51.215573814    4.392660395    51.0622   1  22   0.0020   0.0018   0.0044   0.0003   0.0009  -0.0006  -0.16    3.1    0.00443   -0.00050   -0.00229   0.02841  0.02745  0.02664  0.00310  0.00511 -0.00357
2020/05/05 12:46:27.900   51.215573808    4.392660414    51.0621   1  23   0.0019   0.0018   0.0044   0.0003   0.0009  -0.0007  -0.11    3.1    0.00641    0.00179   -0.00134   0.02837  0.02745  0.02661  0.00349  0.00533 -0.00392
2020/05/05 12:46:27.950   51.215573809    4.392660414    51.0612   1  23   0.0019   0.0018   0.0044   0.0003   0.0009  -0.0007  -0.06    3.1    0.00381    0.00496   -0.00223   0.02840  0.02747  0.02660  0.00345  0.00534 -0.00395
2020/05/05 12:46:28.000   51.215573812    4.392660410    51.0618   1  22   0.0019   0.0018   0.0043   0.0002   0.0009  -0.0006  -0.01    3.1    0.00136    0.00312   -0.00134   0.02830  0.02734  0.02658  0.00295  0.00504 -0.00364
2020/05/05 12:46:28.050   51.215573818    4.392660406    51.0607   1  22   0.0020   0.0018   0.0044   0.0002   0.0009  -0.0006  -0.96    3.1   -0.00028   -0.00038    0.00050   0.02847  0.02752  0.02665  0.00300  0.00509 -0.00347
2020/05/05 12:46:28.100   51.215573821    4.392660408    51.0598   1  22   0.0020   0.0018   0.0044   0.0002   0.0009  -0.0006  -0.91    3.1    0.00021   -0.00154   -0.00297   0.02845  0.02749  0.02666  0.00302  0.00509 -0.00345
2020/05/05 12:46:28.150   51.215573816    4.392660402    51.0602   1  22   0.0020   0.0018   0.0044   0.0002   0.0009  -0.0006  -0.86    3.1   -0.00062   -0.00076   -0.00629   0.02844  0.02747  0.02665  0.00297  0.00508 -0.00346
2020/05/05 12:46:28.200   51.215573811    4.392660396    51.0603   1  22   0.0020   0.0018   0.0044   0.0002   0.0009  -0.0006  -0.81    3.1   -0.00541   -0.00302   -0.00687   0.02844  0.02746  0.02664  0.00287  0.00507 -0.00348
2020/05/05 12:46:28.250   51.215573814    4.392660401    51.0611   1  22   0.0019   0.0018   0.0044   0.0002   0.0009  -0.0006  -0.76    3.1   -0.00652   -0.00642   -0.00367   0.02843  0.02745  0.02663  0.00284  0.00507 -0.00354
2020/05/05 12:46:28.300   51.215573807    4.392660413    51.0605   1  22   0.0019   0.0018   0.0043   0.0003   0.0009  -0.0006  -0.71    3.1   -0.00517   -0.00416    0.00166   0.02833  0.02739  0.02660  0.00338  0.00522 -0.00384
2020/05/05 12:46:28.350   51.215573804    4.392660407    51.0595   1  22   0.0019   0.0018   0.0044   0.0002   0.0008  -0.0006  -0.66    3.1   -0.00458    0.00012    0.00378   0.02838  0.02741  0.02662  0.00294  0.00503 -0.00346
2020/05/05 12:46:28.400   51.215573804    4.392660401    51.0592   1  22   0.0020   0.0018   0.0044  -0.0000   0.0008  -0.0005  -0.61    3.1   -0.00552    0.00451    0.00212   0.02873  0.02744  0.02662  0.00095  0.00486 -0.00276
2020/05/05 12:46:28.450   51.215573807    4.392660382    51.0592   1  23   0.0019   0.0018   0.0043   0.0003   0.0009  -0.0006  -0.56    3.1   -0.00232    0.00384    0.00141   0.02827  0.02733  0.02656  0.00348  0.00526 -0.00392
2020/05/05 12:46:28.500   51.215573802    4.392660394    51.0591   1  23   0.0019   0.0018   0.0043   0.0003   0.0009  -0.0007  -0.51    3.0    0.00040    0.00250    0.00101   0.02826  0.02732  0.02655  0.00345  0.00528 -0.00401
2020/05/05 12:46:28.550   51.215573802    4.392660394    51.0584   1  23   0.0019   0.0018   0.0043   0.0003   0.0009  -0.0007  -0.46    3.0   -0.00000    0.00095   -0.00294   0.02829  0.02733  0.02656  0.00339  0.00527 -0.00398
2020/05/05 12:46:28.600   51.215573802    4.392660418    51.0604   1  23   0.0019   0.0018   0.0043   0.0003   0.0009  -0.0006  -0.41    3.0   -0.00108   -0.00048   -0.00390   0.02829  0.02734  0.02657  0.00344  0.00526 -0.00394
2020/05/05 12:46:28.650   51.215573807    4.392660424    51.0602   1  23   0.0019   0.0018   0.0043   0.0003   0.0009  -0.0006  -0.36    3.0    0.00032    0.00379   -0.00084   0.02828  0.02735  0.02658  0.00355  0.00526 -0.00392
2020/05/05 12:46:28.700   51.215573800    4.392660410    51.0599   1  23   0.0019   0.0018   0.0043   0.0003   0.0009  -0.0007  -0.31    3.0   -0.00101    0.00299   -0.00326   0.02823  0.02732  0.02658  0.00393  0.00534 -0.00405
2020/05/05 12:46:28.750   51.215573804    4.392660404    51.0612   1  23   0.0019   0.0018   0.0043   0.0003   0.0009  -0.0007  -0.26    3.0   -0.00349   -0.00369   -0.00480   0.02827  0.02736  0.02659  0.00375  0.00529 -0.00397
2020/05/05 12:46:28.800   51.215573802    4.392660407    51.0618   1  23   0.0019   0.0018   0.0043   0.0003   0.0009  -0.0007  -0.21    3.0   -0.00214   -0.00654   -0.00150   0.02830  0.02739  0.02659  0.00364  0.00528 -0.00394
2020/05/05 12:46:28.850   51.215573799    4.392660407    51.0614   1  23   0.0019   0.0018   0.0043   0.0003   0.0009  -0.0007  -0.16    3.0   -0.00152   -0.00292    0.00120   0.02832  0.02740  0.02659  0.00365  0.00531 -0.00398
2020/05/05 12:46:28.900   51.215573796    4.392660394    51.0611   1  23   0.0019   0.0018   0.0043   0.0003   0.0009  -0.0006  -0.11    4.7   -0.00171    0.00150    0.00147   0.02834  0.02743  0.02660  0.00368  0.00531 -0.00396
2020/05/05 12:46:28.950   51.215573796    4.392660381    51.0605   1  23   0.0020   0.0018   0.0043   0.0003   0.0009  -0.0006  -0.06    4.7   -0.00134   -0.00129   -0.00043   0.02837  0.02745  0.02660  0.00367  0.00532 -0.00396
2020/05/05 12:46:29.000   51.215573797    4.392660397    51.0610   1  23   0.0019   0.0018   0.0043   0.0003   0.0009  -0.0006  -0.01    4.7    0.00056   -0.00530   -0.00094   0.02821  0.02728  0.02654  0.00358  0.00525 -0.00402
2020/05/05 12:46:29.050   51.215573794    4.392660419    51.0607   1  23   0.0020   0.0018   0.0043   0.0003   0.0009  -0.0006  -0.96    4.7   -0.00042    0.00149    0.00146   0.02840  0.02747  0.02660  0.00361  0.00534 -0.00389
2020/05/05 12:46:29.100   51.215573803    4.392660403    51.0600   1  23   0.0020   0.0018   0.0043   0.0003   0.0009  -0.0006  -0.91    4.7    0.00008    0.00747    0.00342   0.02840  0.02747  0.02660  0.00366  0.00535 -0.00386
2020/05/05 12:46:29.150   51.215573801    4.392660396    51.0585   1  23   0.0020   0.0018   0.0043   0.0003   0.0009  -0.0006  -0.86    4.7    0.00373    0.00389    0.00079   0.02839  0.02747  0.02659  0.00374  0.00533 -0.00388
2020/05/05 12:46:29.200   51.215573801    4.392660397    51.0586   1  23   0.0020   0.0018   0.0043   0.0003   0.0009  -0.0006  -0.81    4.7    0.00562   -0.00093   -0.00452   0.02846  0.02749  0.02659  0.00341  0.00526 -0.00387
2020/05/05 12:46:29.250   51.215573795    4.392660403    51.0595   1  23   0.0020   0.0018   0.0044   0.0003   0.0009  -0.0006  -0.76    4.7    0.00361   -0.00387   -0.00417   0.02837  0.02745  0.02660  0.00375  0.00527 -0.00390
2020/05/05 12:46:29.300   51.215573800    4.392660409    51.0589   1  22   0.0020   0.0019   0.0044   0.0004   0.0009  -0.0005  -0.71    4.7    0.00087   -0.00429   -0.00155   0.02871  0.02761  0.02670  0.00410  0.00548 -0.00233
2020/05/05 12:46:29.350   51.215573802    4.392660404    51.0584   1  22   0.0020   0.0019   0.0044   0.0004   0.0009  -0.0005  -0.66    4.7   -0.00161   -0.00333   -0.00317   0.02849  0.02759  0.02670  0.00406  0.00551 -0.00296
2020/05/05 12:46:29.400   51.215573807    4.392660399    51.0592   1  22   0.0020   0.0019   0.0044   0.0004   0.0009  -0.0005  -0.61    4.7   -0.00219   -0.00321   -0.00369   0.02847  0.02758  0.02669  0.00407  0.00551 -0.00307
2020/05/05 12:46:29.450   51.215573805    4.392660396    51.0595   1  22   0.0020   0.0019   0.0044   0.0004   0.0009  -0.0005  -0.56    4.7   -0.00146    0.00029   -0.00004   0.02847  0.02758  0.02669  0.00417  0.00549 -0.00302
2020/05/05 12:46:29.500   51.215573801    4.392660381    51.0591   1  22   0.0020   0.0019   0.0044   0.0003   0.0009  -0.0004  -0.51    4.7   -0.00189    0.00242    0.00331   0.02869  0.02757  0.02670  0.00416  0.00541 -0.00245
2020/05/05 12:46:29.550   51.215573800    4.392660383    51.0590   1  22   0.0020   0.0018   0.0044   0.0003   0.0009  -0.0005  -0.46    4.7   -0.00148    0.00041    0.00502   0.02838  0.02742  0.02665  0.00322  0.00504 -0.00362
2020/05/05 12:46:29.600   51.215573790    4.392660399    51.0578   1  23   0.0020   0.0018   0.0044   0.0003   0.0009  -0.0006  -0.41    4.7   -0.00294    0.00152    0.00261   0.02833  0.02739  0.02663  0.00362  0.00527 -0.00406
2020/05/05 12:46:29.650   51.215573793    4.392660404    51.0586   1  23   0.0020   0.0018   0.0044   0.0003   0.0009  -0.0006  -0.36    4.7   -0.00554    0.00194   -0.00078   0.02837  0.02741  0.02666  0.00357  0.00535 -0.00399
2020/05/05 12:46:29.700   51.215573798    4.392660416    51.0591   1  22   0.0020   0.0018   0.0044   0.0003   0.0009  -0.0005  -0.31    4.7   -0.00394    0.00108   -0.00047   0.02846  0.02747  0.02673  0.00320  0.00527 -0.00350
2020/05/05 12:46:29.750   51.215573803    4.392660412    51.0589   1  23   0.0020   0.0019   0.0044   0.0003   0.0009  -0.0005  -0.26    4.7    0.00140    0.00108   -0.00203   0.02841  0.02746  0.02676  0.00394  0.00559 -0.00360
2020/05/05 12:46:29.800   51.215573796    4.392660411    51.0595   1  23   0.0020   0.0019   0.0044   0.0003   0.0009  -0.0005  -0.21    4.7    0.00535    0.00265   -0.00516   0.02850  0.02753  0.02680  0.00430  0.00570 -0.00326
2020/05/05 12:46:29.850   51.215573796    4.392660395    51.0611   1  23   0.0020   0.0019   0.0044   0.0002   0.0009  -0.0004  -0.16    4.8    0.00378    0.00709   -0.00345   0.02904  0.02764  0.02684  0.00336  0.00557 -0.00214
2020/05/05 12:46:29.900   51.215573792    4.392660376    51.0601   1  23   0.0020   0.0019   0.0044   0.0003   0.0009  -0.0005  -0.11    4.7    0.00517    0.00022   -0.00097   0.02876  0.02768  0.02686  0.00411  0.00570 -0.00279
2020/05/05 12:46:29.950   51.215573792    4.392660403    51.0606   1  23   0.0020   0.0019   0.0044   0.0003   0.0009  -0.0005  -0.06    4.7    0.00419   -0.00292    0.00068   0.02899  0.02774  0.02689  0.00358  0.00568 -0.00259
2020/05/05 12:46:30.000   51.215573804    4.392660415    51.0606   1  23   0.0020   0.0019   0.0044   0.0003   0.0009  -0.0004  -0.01    4.7    0.00028    0.00485    0.00483   0.02905  0.02757  0.02686  0.00338  0.00556 -0.00239
2020/05/05 12:46:30.050   51.215573813    4.392660408    51.0582   1  23   0.0020   0.0019   0.0044   0.0003   0.0009  -0.0004  -0.96    4.7   -0.00008    0.00717    0.00200   0.02933  0.02779  0.02694  0.00335  0.00564 -0.00218
2020/05/05 12:46:30.100   51.215573818    4.392660409    51.0589   1  23   0.0021   0.0019   0.0044   0.0003   0.0009  -0.0003  -0.91    4.8    0.00320    0.00139   -0.00506   0.02936  0.02777  0.02698  0.00359  0.00562 -0.00159
2020/05/05 12:46:30.150   51.215573807    4.392660419    51.0598   1  22   0.0021   0.0019   0.0044   0.0002   0.0009  -0.0001  -0.86    4.8    0.00100   -0.00204   -0.00477   0.02947  0.02780  0.02707  0.00304  0.00545  0.00154
2020/05/05 12:46:30.200   51.215573802    4.392660411    51.0590   1  22   0.0021   0.0019   0.0045   0.0002   0.0009  -0.0002  -0.81    4.8   -0.00619   -0.00581   -0.00379   0.02952  0.02780  0.02718  0.00279  0.00543  0.00141
2020/05/05 12:46:30.250   51.215573801    4.392660415    51.0596   1  21   0.0021   0.0019   0.0046   0.0003   0.0008  -0.0007  -0.76    5.5   -0.01031   -0.00820   -0.00497   0.02982  0.02788  0.02763  0.00352  0.00449 -0.00391
2020/05/05 12:46:30.300   51.215573799    4.392660398    51.0593   1  21   0.0021   0.0019   0.0046   0.0003   0.0008  -0.0007  -0.71    5.5   -0.01012   -0.00826   -0.00717   0.02990  0.02788  0.02775  0.00323  0.00438 -0.00409
2020/05/05 12:46:30.350   51.215573802    4.392660390    51.0605   1  20   0.0021   0.0019   0.0047   0.0002   0.0008  -0.0008  -0.66    5.6   -0.01036   -0.00755   -0.00538   0.03007  0.02791  0.02779  0.00245  0.00436 -0.00399
2020/05/05 12:46:30.400   51.215573809    4.392660370    51.0582   1  20   0.0021   0.0019   0.0047   0.0002   0.0008  -0.0009  -0.61    3.1   -0.01219   -0.00119    0.00134   0.02978  0.02793  0.02781  0.00308  0.00490 -0.00509
2020/05/05 12:46:30.450   51.215573806    4.392660366    51.0590   1  20   0.0021   0.0019   0.0047   0.0002   0.0008  -0.0009  -0.56    3.1   -0.01042    0.00083    0.00422   0.02980  0.02794  0.02779  0.00322  0.00488 -0.00522
2020/05/05 12:46:30.500   51.215573803    4.392660378    51.0592   1  20   0.0021   0.0019   0.0047   0.0002   0.0008  -0.0009  -0.51    3.1   -0.00396    0.00372    0.00868   0.02983  0.02794  0.02777  0.00328  0.00484 -0.00521
2020/05/05 12:46:30.550   51.215573797    4.392660376    51.0586   1  20   0.0021   0.0019   0.0047   0.0002   0.0008  -0.0009  -0.46    3.1    0.00314    0.00415    0.01161   0.02986  0.02796  0.02779  0.00326  0.00487 -0.00516
2020/05/05 12:46:30.600   51.215573794    4.392660393    51.0572   1  20   0.0021   0.0019   0.0048   0.0003   0.0008  -0.0010  -0.41    3.1    0.00658    0.00282    0.00782   0.02989  0.02798  0.02790  0.00321  0.00485 -0.00529
2020/05/05 12:46:30.650   51.215573800    4.392660393    51.0584   1  20   0.0021   0.0019   0.0049   0.0004   0.0007  -0.0012  -0.36    3.1    0.00738    0.00196    0.00372   0.03012  0.02810  0.02846  0.00432  0.00337 -0.00695
2020/05/05 12:46:30.700   51.215573814    4.392660400    51.0584   1  20   0.0022   0.0019   0.0050   0.0004   0.0006  -0.0012  -0.31    3.1    0.01053    0.00257    0.00458   0.03011  0.02811  0.02862  0.00438  0.00331 -0.00709
2020/05/05 12:46:30.750   51.215573826    4.392660380    51.0583   1  20   0.0022   0.0019   0.0050   0.0004   0.0006  -0.0013  -0.26    3.1    0.01795    0.00109    0.00478   0.03011  0.02812  0.02871  0.00435  0.00343 -0.00702
2020/05/05 12:46:30.800   51.215573821    4.392660385    51.0579   1  20   0.0022   0.0019   0.0050   0.0003   0.0006  -0.0012  -0.21    3.1    0.01236    0.00146    0.00499   0.03058  0.02819  0.02877  0.00310  0.00324 -0.00668
2020/05/05 12:46:30.850   51.215573825    4.392660373    51.0579   1  20   0.0022   0.0019   0.0050   0.0004   0.0006  -0.0012  -0.16    3.1    0.01188   -0.00023    0.00202   0.03016  0.02816  0.02874  0.00442  0.00341 -0.00701
2020/05/05 12:46:30.900   51.215573828    4.392660379    51.0582   1  20   0.0022   0.0019   0.0049   0.0004   0.0007  -0.0012  -0.11    3.1    0.00307   -0.00117   -0.00151   0.03020  0.02819  0.02864  0.00443  0.00355 -0.00686
2020/05/05 12:46:30.950   51.215573841    4.392660385    51.0593   1  21   0.0021   0.0019   0.0048   0.0003   0.0008  -0.0009  -0.06    3.1   -0.00150    0.00077   -0.00244   0.03001  0.02814  0.02810  0.00329  0.00491 -0.00490
2020/05/05 12:46:31.000   51.215573839    4.392660391    51.0597   1  21   0.0021   0.0019   0.0047   0.0002   0.0008  -0.0009  -0.01    3.1   -0.00038    0.00387    0.00093   0.02986  0.02796  0.02797  0.00313  0.00488 -0.00484
2020/05/05 12:46:31.050   51.215573833    4.392660381    51.0585   1  21   0.0021   0.0019   0.0047   0.0003   0.0008  -0.0009  -0.96    3.1    0.00141    0.00025    0.00042   0.03003  0.02814  0.02804  0.00322  0.00491 -0.00493
2020/05/05 12:46:31.100   51.215573815    4.392660403    51.0588   1  21   0.0021   0.0019   0.0047   0.0002   0.0008  -0.0008  -0.91    3.1   -0.00160   -0.00304   -0.00373   0.02999  0.02811  0.02806  0.00313  0.00484 -0.00498
2020/05/05 12:46:31.150   51.215573811    4.392660407    51.0610   1  21   0.0022   0.0019   0.0047   0.0002   0.0008  -0.0007  -0.86    4.7   -0.01039    0.00219   -0.00273   0.03031  0.02802  0.02807  0.00245  0.00436 -0.00415
2020/05/05 12:46:31.200   51.215573807    4.392660403    51.0603   1  21   0.0022   0.0019   0.0047   0.0002   0.0008  -0.0007  -0.81    4.7   -0.01547    0.00440   -0.00184   0.03031  0.02801  0.02805  0.00249  0.00435 -0.00403
2020/05/05 12:46:31.250   51.215573817    4.392660386    51.0604   1  21   0.0022   0.0019   0.0047   0.0002   0.0008  -0.0007  -0.76    4.7   -0.01670    0.00130   -0.00371   0.03032  0.02800  0.02802  0.00256  0.00443 -0.00391
2020/05/05 12:46:31.300   51.215573822    4.392660392    51.0605   1  21   0.0022   0.0019   0.0047   0.0002   0.0007  -0.0007  -0.71    4.7   -0.01109   -0.00405   -0.00460   0.03032  0.02800  0.02801  0.00245  0.00454 -0.00374
2020/05/05 12:46:31.350   51.215573812    4.392660408    51.0607   1  21   0.0022   0.0019   0.0047   0.0002   0.0007  -0.0008  -0.66    4.7   -0.00897    0.00039   -0.00403   0.03031  0.02800  0.02808  0.00213  0.00449 -0.00388
2020/05/05 12:46:31.400   51.215573800    4.392660403    51.0606   1  20   0.0022   0.0019   0.0049   0.0003   0.0005  -0.0011  -0.61    5.6   -0.01763    0.00885   -0.00359   0.03056  0.02808  0.02862  0.00332  0.00285 -0.00619
2020/05/05 12:46:31.450   51.215573807    4.392660403    51.0608   1  20   0.0022   0.0019   0.0049   0.0003   0.0005  -0.0011  -0.56    5.6   -0.02135    0.01642   -0.00273   0.03054  0.02807  0.02870  0.00323  0.00250 -0.00644
2020/05/05 12:46:31.500   51.215573801    4.392660388    51.0604   1  20   0.0022   0.0019   0.0049   0.0003   0.0005  -0.0011  -0.51    5.6   -0.01120    0.01622   -0.00007   0.03053  0.02806  0.02867  0.00321  0.00246 -0.00649
2020/05/05 12:46:31.550   51.215573769    4.392660427    51.0608   1  20   0.0022   0.0019   0.0049  -0.0001   0.0006  -0.0011  -0.46    3.1    0.00693    0.00221    0.00396   0.03040  0.02844  0.02851 -0.00106  0.00291 -0.00660
2020/05/05 12:46:31.600   51.215573770    4.392660433    51.0587   1  21   0.0021   0.0019   0.0047  -0.0003   0.0007  -0.0009  -0.41    3.1    0.00919    0.00267    0.00383   0.03017  0.02840  0.02794 -0.00291  0.00452 -0.00456
2020/05/05 12:46:31.650   51.215573769    4.392660443    51.0584   1  21   0.0021   0.0019   0.0047  -0.0003   0.0008  -0.0008  -0.36    3.1    0.00641   -0.00049   -0.00125   0.03016  0.02840  0.02787 -0.00282  0.00457 -0.00444
2020/05/05 12:46:31.700   51.215573784    4.392660467    51.0586   1  21   0.0021   0.0020   0.0047  -0.0003   0.0007  -0.0009  -0.31    3.1    0.00314    0.00036   -0.00517   0.03014  0.02841  0.02794 -0.00272  0.00435 -0.00485
2020/05/05 12:46:31.750   51.215573792    4.392660457    51.0597   1  20   0.0022   0.0020   0.0048  -0.0002   0.0006  -0.0011  -0.26    3.1    0.00477    0.00258   -0.00621   0.03036  0.02849  0.02841  0.00084  0.00281 -0.00668
2020/05/05 12:46:31.800   51.215573793    4.392660444    51.0597   1  21   0.0021   0.0020   0.0047  -0.0003   0.0007  -0.0009  -0.21    3.1    0.00538   -0.00273   -0.00314   0.03009  0.02842  0.02802 -0.00283  0.00436 -0.00488
2020/05/05 12:46:31.850   51.215573787    4.392660438    51.0597   1  21   0.0021   0.0019   0.0047  -0.0003   0.0008  -0.0008  -0.16    3.1    0.00054   -0.00994    0.00174   0.03011  0.02844  0.02797 -0.00282  0.00457 -0.00454
2020/05/05 12:46:31.900   51.215573808    4.392660413    51.0597   1  21   0.0021   0.0019   0.0047   0.0003   0.0008  -0.0008  -0.11    4.6    0.00875   -0.01958    0.00621   0.02989  0.02808  0.02795  0.00364  0.00471 -0.00454
2020/05/05 12:46:31.950   51.215573803    4.392660381    51.0585   1  21   0.0021   0.0019   0.0047   0.0004   0.0008  -0.0008  -0.06    4.6    0.00635   -0.01598    0.00617   0.02995  0.02813  0.02794  0.00372  0.00471 -0.00458
2020/05/05 12:46:32.000   51.215573811    4.392660373    51.0589   1  21   0.0021   0.0019   0.0047   0.0004   0.0008  -0.0008  -0.01    4.6    0.00382   -0.01366    0.00437   0.02979  0.02797  0.02787  0.00381  0.00460 -0.00469
2020/05/05 12:46:32.050   51.215573805    4.392660374    51.0586   1  21   0.0021   0.0019   0.0047   0.0004   0.0008  -0.0008  -0.96    4.6    0.00526   -0.00816    0.00276   0.02995  0.02813  0.02793  0.00413  0.00463 -0.00461
2020/05/05 12:46:32.100   51.215573804    4.392660385    51.0592   1  21   0.0022   0.0019   0.0047   0.0003   0.0008  -0.0007  -0.91    4.7    0.00255   -0.00082    0.00065   0.03036  0.02814  0.02795  0.00306  0.00447 -0.00385
2020/05/05 12:46:32.150   51.215573793    4.392660396    51.0591   1  20   0.0022   0.0020   0.0047   0.0004   0.0009  -0.0006  -0.86    4.7   -0.00410    0.00543   -0.00208   0.03054  0.02850  0.02799  0.00502  0.00537 -0.00275
2020/05/05 12:46:32.200   51.215573806    4.392660407    51.0605   1  20   0.0022   0.0020   0.0047   0.0005   0.0009  -0.0005  -0.81    4.7   -0.01076    0.01211   -0.00384   0.03056  0.02853  0.02798  0.00489  0.00542 -0.00270
2020/05/05 12:46:32.250   51.215573819    4.392660406    51.0623   1  20   0.0022   0.0020   0.0047   0.0005   0.0009  -0.0005  -0.76    4.7   -0.00637    0.01926    0.00296   0.03060  0.02856  0.02796  0.00460  0.00536 -0.00281
2020/05/05 12:46:32.300   51.215573817    4.392660384    51.0616   1  20   0.0022   0.0020   0.0047   0.0005   0.0009  -0.0005  -0.71    4.7    0.00085    0.01552    0.01233   0.03064  0.02858  0.02795  0.00448  0.00531 -0.00290
2020/05/05 12:46:32.350   51.215573806    4.392660395    51.0594   1  20   0.0022   0.0020   0.0047   0.0004   0.0009  -0.0005  -0.66    4.7    0.00187    0.00226    0.01051   0.03064  0.02856  0.02794  0.00443  0.00529 -0.00290
2020/05/05 12:46:32.400   51.215573792    4.392660446    51.0586   1  20   0.0022   0.0020   0.0047  -0.0002   0.0009  -0.0005  -0.61    3.0    0.00513   -0.00506    0.00073   0.03095  0.02897  0.02794 -0.00186  0.00521 -0.00263
2020/05/05 12:46:32.450   51.215573787    4.392660439    51.0606   1  20   0.0022   0.0020   0.0047  -0.0003   0.0009  -0.0005  -0.56    3.0    0.00132   -0.00016   -0.00105   0.03091  0.02893  0.02795 -0.00152  0.00526 -0.00251
2020/05/05 12:46:32.500   51.215573795    4.392660428    51.0609   1  20   0.0022   0.0020   0.0047  -0.0003   0.0009  -0.0005  -0.51    3.0   -0.00254   -0.00195    0.00310   0.03086  0.02890  0.02795 -0.00130  0.00520 -0.00257
2020/05/05 12:46:32.550   51.215573794    4.392660430    51.0609   1  21   0.0022   0.0020   0.0047  -0.0005   0.0007  -0.0006  -0.46    3.0   -0.00195   -0.00554    0.00681   0.03072  0.02855  0.02792 -0.00450  0.00424 -0.00355
